City_ID,City,Lat,Lng,Max Temp,Humidity,Cloudiness,Wind Speed,Country,Date
0,korsholm,63.1142,21.6822,61.23,79,0,10.36,FI,1690219975
1,punta arenas,-53.15,-70.9167,30.88,73,100,6.42,CL,1690219927
2,iqaluit,63.7506,-68.5145,49.73,71,75,11.99,CA,1690219935
3,yellowknife,62.456,-114.3525,70.32,52,100,6.91,CA,1690220125
4,margaret river,-33.95,115.0667,61.43,73,7,18.1,AU,1690220125
5,otofuke,42.9917,143.2003,68.92,90,76,2.53,JP,1690220126
6,olonkinbyen,70.9221,-8.7187,40.75,94,100,12.82,SJ,1690220126
7,salinopolis,-0.6136,-47.3561,84.88,64,29,10.38,BR,1690220126
8,weno,7.4515,151.8468,82.15,79,100,14.25,FM,1690220127
9,modimolle,-24.7,28.4,64.69,37,61,4.47,ZA,1690220127
10,vadso,70.0744,29.7487,50.16,93,100,13.8,NO,1690220127
11,adamstown,-25.066,-130.1015,67.78,68,48,9.66,PN,1690220128
12,hawaiian paradise park,19.5933,-154.9731,74.03,96,100,4.61,US,1690220128
13,cuite,-6.4836,-36.1536,77.88,52,42,15.12,BR,1690220128
14,blackmans bay,-43.0167,147.3167,44.73,78,12,5.39,AU,1690219926
15,qaqortoq,60.7167,-46.0333,44.4,85,99,8.43,GL,1690220128
16,campoverde,-8.4753,-74.8058,89.29,31,15,1.01,PE,1690220129
17,port-aux-francais,-49.35,70.2167,39.2,71,100,24.29,TF,1690220129
18,villaquilambre,42.6469,-5.5584,71.89,37,0,11.5,ES,1690220129
19,stanley,54.868,-1.6985,58.78,73,75,3.44,GB,1690220037
20,el calafate,-50.3408,-72.2768,23.31,82,100,1.57,AR,1690220130
21,gobabis,-22.45,18.9667,64.45,25,8,4.65,NA,1690220130
22,huilong,31.8111,121.655,81.93,91,3,12.06,CN,1690220130
23,turkestan,43.3333,68.25,89.64,14,0,11.61,KZ,1690220130
24,oriximina,-1.7656,-55.8661,94.05,37,2,6.53,BR,1690220130
25,nouadhibou,20.931,-17.0347,76.98,69,53,19.57,MR,1690220131
26,huarmey,-10.0681,-78.1522,74.84,66,19,12.08,PE,1690220031
27,laguna,38.421,-121.4238,85.08,52,0,10.36,US,1690220131
28,castillos,-34.1667,-53.8333,46.63,93,100,7.83,UY,1690220131
29,bilibino,68.0546,166.4372,49.15,93,100,0.25,RU,1690219922
30,grytviken,-54.2811,-36.5092,21.67,76,72,10.22,GS,1690219923
31,touros,-5.1989,-35.4608,82.6,63,38,18.37,BR,1690220057
32,bethel,41.3712,-73.414,86.41,59,20,9.22,US,1690220084
33,nandaime,11.757,-86.0529,87.04,56,98,15.55,NI,1690220132
34,tres palos,18.1833,-101.6167,86.11,63,100,2.66,MX,1690220133
35,lihue,21.9789,-159.3672,80.19,81,100,19.57,US,1690220133
36,washington,47.5001,-120.5015,80.15,33,14,4.68,US,1690220057
37,shakawe,-18.3667,21.85,67.17,18,23,5.03,BW,1690220049
38,isna,25.2934,32.554,100.42,11,2,12.26,EG,1690220133
39,ilha de mocambique,-15.0342,40.7358,75.09,74,5,13.2,MZ,1690220134
40,ixtapa,20.7,-105.2,90.23,74,100,4.61,MX,1690220134
41,enewetak,11.3474,162.3373,83.17,76,66,14.29,MH,1690220134
42,sur,22.5667,59.5289,86.25,67,100,1.79,OM,1690220134
43,kashgar,39.4547,75.9797,76.21,46,40,20.13,CN,1690220135
44,ust-nera,64.5667,143.2,60.58,62,80,7.92,RU,1690219926
45,howrah,22.5892,88.3103,82.4,89,20,3.44,IN,1690220000
46,kodiak,57.79,-152.4072,54.91,76,100,11.5,US,1690220024
47,invercargill,-46.4,168.35,43.83,88,96,7.14,NZ,1690220136
48,pimenta bueno,-11.6725,-61.1936,98.83,18,0,2.1,BR,1690220137
49,mayna,54.1135,47.6231,62.13,70,87,5.84,RU,1690220138
50,longyearbyen,78.2186,15.6401,51.64,76,40,14.97,SJ,1690220138
51,port saint john's,-31.6229,29.5448,59.72,63,6,6.93,ZA,1690220138
52,udachny,66.4167,112.4,57.45,87,96,5.14,RU,1690220139
53,waitangi,-43.9535,-176.5597,52.83,98,100,5.99,NZ,1690220139
54,nagqu,31.5,92.0,42.8,88,100,2.44,CN,1690220139
55,island harbour,50.724,-1.2758,64.04,80,88,5.01,GB,1690220139
56,port lincoln,-34.7333,135.8667,54.05,74,22,7.31,AU,1690220140
57,susanville,40.4163,-120.653,84.81,13,0,8.01,US,1690220140
58,natal,-5.795,-35.2094,86.22,54,40,19.57,BR,1690220140
59,fort bragg,35.139,-79.006,86.14,71,100,4.0,US,1690219845
60,albany,42.6001,-73.9662,86.18,65,54,3.0,US,1690219845
61,fiche,9.8,38.7333,55.08,76,98,2.51,ET,1690220141
62,lebu,-37.6167,-73.65,52.88,79,93,18.7,CL,1690220141
63,port augusta,-32.5,137.7667,46.15,85,0,5.32,AU,1690220141
64,laascaanood,8.4774,47.3597,83.68,38,64,24.14,SO,1690220141
65,mount gambier,-37.8333,140.7667,46.94,84,61,1.54,AU,1690219855
66,susner,23.95,76.0833,81.64,80,81,10.07,IN,1690220141
67,tiksi,71.6872,128.8694,38.55,85,20,5.37,RU,1690219954
68,galliano,29.4422,-90.2992,91.4,55,0,6.91,US,1690220142
69,road town,18.4167,-64.6167,89.69,62,20,13.8,VG,1690219973
70,polyarnyy,69.1989,33.4478,49.01,96,100,13.8,RU,1690220142
71,axim,4.8699,-2.2405,76.41,88,100,5.17,GH,1690220143
72,villa regina,-39.1,-67.0667,51.98,25,84,17.27,AR,1690220143
73,lompoc,34.6391,-120.4579,85.01,100,75,4.61,US,1690220143
74,puerto ayora,-0.7393,-90.3518,84.16,78,89,11.03,EC,1690220143
75,hithadhoo,-0.6,73.0833,83.12,78,100,15.75,MV,1690220143
76,altenberg,50.7656,13.7533,72.61,72,99,17.0,DE,1690220144
77,murmashi,68.8154,32.8115,52.21,100,75,4.47,RU,1690220144
78,afaahiti,-17.75,-149.2833,76.87,87,26,19.39,PF,1690219973
79,copiapo,-27.3667,-70.3333,62.29,28,40,5.5,CL,1690219970
80,diamantino,-14.4086,-56.4461,96.51,16,0,3.62,BR,1690220144
81,flying fish cove,-10.4217,105.6791,74.88,88,75,5.75,CX,1690220145
82,queenstown,-31.8976,26.8753,43.63,46,0,1.99,ZA,1690220145
83,st. john's,47.5649,-52.7093,78.28,83,75,18.41,CA,1690219942
84,ende,-8.8432,121.6623,73.87,89,99,9.08,ID,1690220145
85,west island,-12.1568,96.8225,76.98,83,75,18.41,CC,1690219927
86,westport,41.1415,-73.3579,87.76,61,0,8.05,US,1690220145
87,klyuchi,52.2667,79.1667,71.76,47,15,12.71,RU,1690220146
88,keflavik,64.0049,-22.5624,57.11,100,100,10.36,IS,1690220146
89,vilyuchinsk,52.9306,158.4028,53.87,90,21,9.93,RU,1690220031
90,port elizabeth,-33.918,25.5701,53.89,71,0,10.36,ZA,1690219962
91,tura,25.5198,90.2201,75.27,93,100,4.16,IN,1690220147
92,bubaque,11.2833,-15.8333,81.43,76,89,9.73,GW,1690220147
93,mount pearl,47.5166,-52.7813,77.45,83,75,18.41,CA,1690220147
94,bandarbeyla,9.4942,50.8122,76.84,71,60,34.96,SO,1690220147
95,la'ie,21.6477,-157.9253,80.56,77,54,14.47,US,1690220147
96,haiku-pauwela,20.9219,-156.3051,80.04,75,0,16.11,US,1690220148
97,kingston,17.997,-76.7936,93.24,66,20,18.41,JM,1690220024
98,edinburgh of the seven seas,-37.0676,-12.3116,58.3,81,85,35.88,SH,1690219932
99,whitehorse,60.7161,-135.0538,57.02,82,75,10.0,CA,1690220148
100,caminauit,12.3314,121.0825,80.94,85,100,24.43,PH,1690220148
101,bodaybo,57.8506,114.1933,62.11,85,28,3.06,RU,1690220149
102,tomohon,1.3346,124.8392,74.34,90,84,5.21,ID,1690220149
103,plettenberg bay,-34.0527,23.3716,50.49,71,0,5.66,ZA,1690220149
104,shar'ya,58.3686,45.5144,55.9,87,37,6.04,RU,1690220150
105,rawson,-43.3002,-65.1023,46.94,57,100,24.9,AR,1690220150
106,manta,-0.95,-80.7333,87.58,74,20,13.0,EC,1690220150
107,saint-philippe,-21.3585,55.7679,69.39,83,40,8.68,RE,1690220150
108,hermanus,-34.4187,19.2345,44.8,66,0,4.52,ZA,1690219967
109,ushuaia,-54.8,-68.3,33.46,69,0,1.14,AR,1690219890
110,barrancas,10.9576,-72.7877,99.63,38,78,7.83,CO,1690220151
111,quito,-0.2299,-78.5249,70.75,42,34,6.71,EC,1690219919
112,puerto natales,-51.7236,-72.4875,26.33,77,100,1.68,CL,1690220151
113,aykhal,66.0,111.5,55.18,86,95,4.94,RU,1690220151
114,dudinka,69.4058,86.1778,58.62,73,39,9.06,RU,1690220152
115,isafjordur,66.0755,-23.124,53.64,87,100,0.0,IS,1690219940
116,vorkuta,67.5,64.0,62.98,70,64,7.56,RU,1690220152
117,georgetown,5.4112,100.3354,81.01,84,20,3.44,MY,1690220152
118,vilyuysk,63.7553,121.6247,61.74,93,60,5.77,RU,1690220153
119,wailua homesteads,22.0669,-159.378,79.59,86,100,19.57,US,1690219969
120,along,28.1667,94.7667,74.88,97,100,1.57,IN,1690220153
121,pisco,-13.7,-76.2167,71.65,60,0,8.05,PE,1690220153
122,geraldton,-28.7667,114.6,50.41,71,59,14.97,AU,1690220154
123,auki,-8.7676,160.7034,75.42,89,70,3.09,SB,1690220154
124,obo,5.3998,26.4869,73.08,84,89,2.89,CF,1690220154
125,vorgashor,67.5833,63.95,62.01,72,61,7.0,RU,1690220154
126,furmanov,57.2508,41.1058,54.77,92,96,6.76,RU,1690220155
127,morehead,37.2711,-87.1764,86.86,69,0,9.22,US,1690219981
128,ribeira grande,38.5167,-28.7,72.0,94,75,2.3,PT,1690220155
129,kone,-21.0595,164.8658,60.28,83,89,4.36,NC,1690220155
130,lensk,60.7253,114.9278,65.64,74,45,2.93,RU,1690220155
131,yarmouth,41.7057,-70.2286,84.96,67,0,9.22,US,1690220156
132,kayangel,8.0823,134.7173,78.82,84,100,5.46,PW,1690220156
133,novaya igirma,57.1334,103.9112,60.03,96,99,3.62,RU,1690220156
134,erenhot,43.6475,111.9767,77.85,33,17,2.01,CN,1690220156
135,ingeniero jacobacci,-41.3427,-69.5448,36.14,75,99,19.69,AR,1690220156
136,la passe,45.5549,-0.8967,73.63,71,86,16.87,FR,1690219934
137,naze,28.3667,129.4833,81.52,82,94,13.44,JP,1690220157
138,kupang,-10.1667,123.5833,71.87,79,50,15.64,ID,1690220157
139,wynyard,-41.0,145.7167,46.11,85,60,5.99,AU,1690219918
140,saldanha,-33.0117,17.9442,48.25,67,0,12.24,ZA,1690220157
141,okha,53.5739,142.9478,58.21,84,97,3.65,RU,1690220157
142,czarna bialostocka,53.3051,23.2815,71.82,78,89,5.17,PL,1690220158
143,ilulissat,69.2167,-51.1,48.22,81,40,4.61,GL,1690220158
144,novodvinsk,64.4165,40.8122,55.6,88,86,4.23,RU,1690220009
145,san-pedro,4.7485,-6.6363,78.01,83,78,8.72,CI,1690220010
146,lazaro cardenas,17.9583,-102.2,87.85,60,100,2.59,MX,1690220158
147,meadow lakes,61.6247,-149.6011,65.41,79,0,1.01,US,1690220159
148,marka,1.7159,44.7717,76.35,83,45,16.93,SO,1690220159
149,vila velha,-20.3297,-40.2925,76.95,75,40,8.05,BR,1690220160
150,meadow lake,34.8014,-106.5436,93.79,24,4,8.21,US,1690220030
151,moshi,-3.35,37.3333,71.98,68,74,4.7,TZ,1690220161
152,elmadag,39.9208,33.2308,76.35,54,24,9.6,TR,1690220161
153,jincheng,35.5022,112.8328,78.37,68,24,2.73,CN,1690220161
154,arraial do cabo,-22.9661,-42.0278,78.76,73,0,16.11,BR,1690220161
155,haapsalu,58.9431,23.5414,64.9,69,30,7.87,EE,1690220162
156,bredasdorp,-34.5322,20.0403,46.87,73,0,4.54,ZA,1690220162
157,iskateley,67.6803,53.1512,59.5,82,98,7.14,RU,1690219979
158,luwuk,-0.9516,122.7875,75.9,88,77,5.12,ID,1690220163
159,ankang,32.68,109.0172,74.73,87,70,2.24,CN,1690219989
160,mugia,43.1041,-9.2179,70.92,72,28,12.88,ES,1690219939
161,tres lagoas,-20.7511,-51.6783,88.07,22,0,6.53,BR,1690220163
162,amphoe sikhiu,14.8994,101.7083,76.19,89,93,4.43,TH,1690220164
163,guerrero negro,27.9769,-114.0611,81.12,47,76,9.98,MX,1690219960
164,serhiyivka,46.0272,30.3768,75.18,72,3,16.78,UA,1690220164
165,anadyr,64.75,177.4833,50.5,93,75,13.0,RU,1690220164
166,inyonga,-6.7167,32.0667,70.97,36,89,4.52,TZ,1690220165
167,keningau,5.3378,116.1602,71.91,98,99,1.05,MY,1690220165
168,hailin,44.5833,129.4167,64.17,94,2,3.06,CN,1690220165
169,canutama,-6.5339,-64.3831,97.12,23,85,3.74,BR,1690220165
170,kichmengskiy gorodok,59.9816,45.7854,55.26,94,85,5.21,RU,1690220165
171,utrik,11.2278,169.8474,82.71,78,56,15.5,MH,1690219975
172,luderitz,-26.6481,15.1594,57.42,66,94,13.96,NA,1690220166
173,al hudaydah,14.7978,42.9545,95.88,42,95,20.33,YE,1690220166
174,mana,5.6592,-53.7767,86.92,64,21,8.5,GF,1690220166
175,berezovyy,51.6667,135.7,65.46,90,97,2.84,RU,1690219988
176,tazovsky,67.4667,78.7,60.6,88,36,5.28,RU,1690219924
177,al bawiti,28.3492,28.8659,94.53,20,0,19.66,EG,1690220167
178,bridlington,54.0831,-0.1919,62.53,72,68,8.01,GB,1690220168
179,nemuro,43.3236,145.575,61.34,98,100,11.99,JP,1690220168
180,avarua,-21.2078,-159.775,73.45,83,100,4.61,CK,1690219967
181,hanford,36.3275,-119.6457,90.25,23,0,9.22,US,1690220102
182,vatra dornei,47.35,25.3667,67.57,78,21,3.33,RO,1690220169
183,darhan,49.4867,105.9228,61.3,88,69,3.22,MN,1690220169
184,ciutadella,40.0011,3.8414,86.81,76,93,8.81,ES,1690220169
185,palembang,-2.9167,104.7458,77.09,94,40,2.3,ID,1690220169
186,dordrecht,51.81,4.6736,64.98,77,83,4.0,NL,1690220059
187,parelhas,-6.6878,-36.6575,90.09,32,16,16.98,BR,1690220170
188,ponta delgada,37.7333,-25.6667,79.52,61,20,12.66,PT,1690220170
189,coquimbo,-29.9533,-71.3436,60.53,77,0,12.66,CL,1690219901
190,ta`u,-14.2336,-169.5144,78.55,74,60,13.89,AS,1690220170
191,ceeldheer,3.8488,47.1806,77.22,76,29,21.52,SO,1690220171
192,rijau,11.103,5.2507,80.11,74,99,5.64,NG,1690220171
193,hilo,19.7297,-155.09,88.29,94,100,4.61,US,1690220148
194,bataipora,-22.2953,-53.2711,85.82,29,12,6.06,BR,1690220171
195,las lomitas,-24.7096,-60.593,69.24,49,94,7.09,AR,1690220171
196,jayapura,-2.5333,140.7,78.19,92,98,3.91,ID,1690220172
197,port mathurin,-19.6833,63.4167,73.65,76,21,17.25,MU,1690219957
198,papatowai,-46.5619,169.4708,45.1,87,89,7.81,NZ,1690220172
199,navalmoral de la mata,39.8916,-5.5406,86.95,17,20,17.05,ES,1690220172
200,post,33.1909,-101.3782,95.97,24,0,11.16,US,1690220172
201,dubbo,-32.25,148.6167,41.13,87,0,13.8,AU,1690219962
202,sungai raya,0.7,108.9,78.55,88,96,8.19,ID,1690220173
203,lethem,3.3803,-59.7968,87.89,60,27,2.51,GY,1690220173
204,puerto carreno,6.189,-67.4859,84.18,74,40,4.61,CO,1690220173
205,valentin gomez farias,28.2167,-106.5833,85.64,26,5,14.72,MX,1690220174
206,tsiombe,-25.3,45.4833,63.79,85,48,2.93,MG,1690220174
207,hirara,24.8,125.2833,82.67,83,40,6.91,JP,1690220174
208,narsinghgarh,23.7,77.1,81.39,80,98,6.78,IN,1690220175
209,brokopondo,4.75,-55.1667,87.67,60,21,5.19,SR,1690220175
210,griffith,41.5284,-87.4237,87.12,55,0,6.91,US,1690220175
211,nonsan,36.2039,127.0847,73.62,96,99,3.33,KR,1690220175
212,vasteras,59.6162,16.5528,66.11,59,75,12.66,SE,1690220175
213,bobrov,51.0961,40.0333,62.01,73,82,4.65,RU,1690220176
214,thompson,55.7435,-97.8558,75.36,38,20,8.05,CA,1690219937
215,siwa oasis,29.2041,25.5195,100.6,17,0,20.74,EG,1690220176
216,pitalito,1.8497,-76.0479,71.2,71,89,2.93,CO,1690220127
217,kodinsk,58.6881,99.1844,63.18,91,94,0.83,RU,1690220176
218,chonchi,-42.6128,-73.8092,45.12,94,99,10.4,CL,1690220177
219,codrington,-38.2667,141.9667,52.86,68,93,4.76,AU,1690220177
220,oranjemund,-28.55,16.4333,54.68,76,100,19.69,NA,1690220177
221,labrador city,52.9463,-66.9114,78.71,38,40,9.22,CA,1690219961
222,wainwright,52.839,-110.8572,81.1,44,17,16.69,CA,1690220178
223,ratne,51.6683,24.5303,70.45,72,82,8.19,UA,1690220178
224,santa elena de uairen,4.6167,-61.1333,77.41,65,83,6.69,VE,1690220178
225,jamestown,42.097,-79.2353,81.01,56,40,9.22,US,1690220163
226,tikhvin,59.6451,33.5294,57.22,85,85,2.68,RU,1690220179
227,pama,11.2497,0.7075,82.92,66,83,7.54,BF,1690220179
228,sitka,57.0531,-135.33,57.09,82,20,4.61,US,1690220179
229,quellon,-43.1167,-73.6167,46.65,93,100,27.63,CL,1690220014
230,hassi messaoud,31.6804,6.0729,112.86,5,0,5.75,DZ,1690220180
231,monaca,40.6873,-80.2714,86.77,52,75,5.99,US,1690220180
232,calama,-22.4667,-68.9333,73.89,7,0,13.8,CL,1690219941
233,zapata,26.9073,-99.2714,96.91,36,2,6.91,US,1690220020
234,chikhli,20.35,76.25,74.61,87,99,15.61,IN,1690220181
235,lerwick,60.1545,-1.1494,57.2,79,30,12.15,GB,1690220181
236,agdam,39.991,46.9274,83.41,39,22,5.1,AZ,1690220183
237,hammerfest,70.6634,23.6821,52.25,87,75,10.36,NO,1690220183
238,pathein,16.7833,94.7333,78.42,91,64,7.31,MM,1690220183
239,kaspiyskiy,45.3929,47.3707,80.78,59,92,13.2,RU,1690220184
240,nyurba,63.2842,118.3319,62.78,88,49,7.92,RU,1690219986
241,regina,50.4501,-104.6178,84.18,50,75,17.27,CA,1690220183
242,lagoa,39.05,-27.9833,72.36,83,68,12.35,PT,1690220185
243,ust-tsilma,65.441,52.1498,58.48,93,84,4.38,RU,1690220185
244,new carlisle,39.9362,-84.0255,83.89,72,75,11.5,US,1690220185
245,itamaraca,-7.7478,-34.8256,75.25,72,21,12.97,BR,1690220185
246,katima mulilo,-17.5,24.2667,68.32,22,2,2.66,NA,1690220186
247,port alfred,-33.5906,26.891,55.63,65,2,10.83,ZA,1690220186
248,veruela,8.0731,125.9558,76.95,84,100,5.79,PH,1690220186
249,atafu village,-8.5421,-172.5159,84.92,65,46,16.98,TK,1690220186
250,mo i rana,66.3128,14.1428,61.27,88,75,3.44,NO,1690220187
251,mormugao,15.4,73.8,76.26,100,100,6.91,IN,1690220187
252,uturoa,-16.7333,-151.4333,79.97,82,27,16.33,PF,1690220187
253,fomboni,-12.28,43.7425,77.27,77,75,12.1,KM,1690220187
254,bodo,67.28,14.405,59.45,84,75,5.75,NO,1690220096
255,hasaki,35.7333,140.8333,75.31,89,74,7.27,JP,1690220188
256,susuman,62.7833,148.1667,49.03,74,73,4.47,RU,1690220188
257,whangarei,-35.7317,174.3239,47.95,98,41,3.76,NZ,1690220188
258,isiro,2.7739,27.616,68.94,94,72,2.06,CD,1690220188
259,beledweyne,4.7358,45.2036,82.11,53,97,24.45,SO,1690220016
260,cuero,29.0939,-97.2892,95.68,32,22,6.35,US,1690220189
261,mokshan,53.4365,44.6132,61.36,78,100,6.44,RU,1690220189
262,naberera,-4.2,36.9333,62.33,69,53,9.93,TZ,1690220189
263,yunyang,33.4474,112.7142,80.17,88,73,3.74,CN,1690220190
264,la ronge,55.1001,-105.2842,73.65,56,0,3.44,CA,1690220190
265,fort st. john,56.2499,-120.8529,58.89,82,100,4.61,CA,1690220190
266,mar del plata,-38.0023,-57.5575,49.95,63,40,15.01,AR,1690220190
267,rabo de peixe,37.8,-25.5833,78.31,61,20,12.66,PT,1690220190
268,fonte boa,-2.4959,-66.2662,93.13,38,4,4.29,BR,1690220191
269,fortuna,40.5982,-124.1573,72.93,74,20,5.75,US,1690220129
270,bengkulu,-3.8004,102.2655,74.25,85,39,3.71,ID,1690220191
271,ulsteinvik,62.3432,5.8487,58.98,86,100,11.01,NO,1690220191
272,dakhla,23.6848,-15.958,77.02,61,11,31.07,EH,1690220191
273,kegeyli shahar,42.7767,59.6078,93.29,25,37,10.49,UZ,1690220025
274,praia da vitoria,38.7333,-27.0667,77.25,78,40,12.17,PT,1690220192
275,suntar,62.1444,117.6319,66.63,66,15,1.03,RU,1690220192
276,homer,59.6425,-151.5483,60.76,88,0,3.44,US,1690220192
277,viedma,-40.8135,-62.9967,50.49,46,99,11.74,AR,1690220193
278,cidreira,-30.1811,-50.2056,62.82,93,100,11.3,BR,1690220193
279,trenggalek,-8.05,111.7167,70.21,95,52,0.58,ID,1690220198
280,nelson bay,-32.7167,152.15,52.09,97,59,7.87,AU,1690220088
281,daru,-9.0763,143.2092,75.24,73,100,7.36,PG,1690220198
282,gwadar,25.1216,62.3254,83.44,78,100,8.01,PK,1690220199
283,tunceli,39.1083,39.5471,74.23,53,1,9.66,TR,1690220199
284,roma,43.2128,-75.4557,84.96,54,20,3.44,US,1690220199
285,crane,31.3974,-102.3501,97.93,18,0,11.45,US,1690220199
286,necochea,-38.5473,-58.7368,48.87,55,72,8.66,AR,1690220199
287,pingliang,35.5392,106.6861,69.98,59,1,3.53,CN,1690220200
288,holualoa,19.6228,-155.9522,76.84,83,40,3.44,US,1690220032
289,tanout,14.9709,8.8879,94.32,34,23,8.57,NE,1690220200
290,gisborne,-38.6533,178.0042,46.72,86,10,5.79,NZ,1690220200
291,jimma,7.6667,36.8333,61.38,96,100,2.93,ET,1690220200
292,kerikeri,-35.2268,173.9474,45.91,92,29,4.92,NZ,1690220201
293,carnarvon,-24.8667,113.6333,60.96,74,65,11.77,AU,1690220201
294,manthani,18.65,79.6667,77.56,92,100,11.1,IN,1690220201
295,shetpe,44.1667,52.1167,87.17,33,79,10.13,KZ,1690220223
296,college,64.8569,-147.8028,79.2,68,40,3.44,US,1690220223
297,nanakuli,21.3906,-158.1547,80.55,83,100,5.75,US,1690220223
298,mandalay,21.9747,96.0836,86.11,64,73,11.72,MM,1690220224
299,linhares,-19.3911,-40.0722,77.67,53,3,8.86,BR,1690220224
300,zhezqazghan,47.7833,67.7667,84.4,20,68,15.57,KZ,1690220224
301,mogadishu,2.0371,45.3438,77.09,82,17,17.29,SO,1690220038
302,caidian,30.5833,114.0333,86.13,78,95,4.27,CN,1690220225
303,yankton,42.8711,-97.3973,84.11,65,0,10.36,US,1690220225
304,mahajanga,-15.7167,46.3167,75.22,83,20,4.61,MG,1690220225
305,podvelka,46.5869,15.3306,82.02,83,99,5.28,SI,1690220225
306,san patricio,28.017,-97.5169,97.16,39,23,10.42,US,1690220226
307,tobelo,1.7284,128.0095,78.22,86,52,8.48,ID,1690219951
308,porto novo,6.4965,2.6036,78.62,93,100,6.89,BJ,1690220156
309,namie,37.4833,141.0,75.72,94,68,3.76,JP,1690220227
310,funadhoo,6.15,73.2667,82.63,81,78,10.83,MV,1690220227
311,minas de marcona,-15.2119,-75.1103,63.63,58,12,14.88,PE,1690220227
312,cide,41.8921,33.0044,72.77,80,0,6.78,TR,1690220228
313,northam,51.0333,-4.2167,62.65,75,67,11.01,GB,1690220228
314,margate,51.3813,1.3862,61.7,77,100,5.99,GB,1690220228
315,manadhoo,5.7667,73.3833,82.38,81,85,9.95,MV,1690220229
316,darwin,-12.4611,130.8418,63.9,28,6,10.0,AU,1690220229
317,juneau,58.3019,-134.4197,59.11,97,75,3.44,US,1690219985
318,rio brilhante,-21.8019,-54.5464,87.85,26,0,8.19,BR,1690220230
319,ola,59.5833,151.2833,52.77,74,5,3.27,RU,1690220230
320,turhal,40.3875,36.0811,65.59,87,27,4.72,TR,1690220230
321,zhabinka,52.1984,24.0115,71.6,59,84,8.43,BY,1690220230
322,alice springs,-23.7,133.8833,40.55,75,0,9.22,AU,1690220231
323,saint-pierre,-21.3393,55.4781,69.48,83,0,4.61,RE,1690220231
324,talnakh,69.4865,88.3972,58.21,71,78,1.68,RU,1690219981
325,tolanaro,-25.0319,46.9987,68.07,94,20,4.61,MG,1690220232
326,sarakhs,36.5449,61.1577,91.81,15,0,10.16,IR,1690220232
327,howard springs,-12.497,131.047,63.82,42,6,9.44,AU,1690220232
328,beloyarskiy,63.7119,66.6722,60.17,93,95,2.68,RU,1690220232
329,ventnor,50.5948,-1.2037,63.48,82,93,12.84,GB,1690220232
330,bereeda,11.8704,51.0579,87.31,57,100,6.2,SO,1690220233
331,nizhniy odes,63.6445,54.856,61.61,68,91,4.45,RU,1690220233
332,qarazhal,48.0078,70.7903,78.1,25,44,13.31,KZ,1690220233
333,saurimo,-9.6608,20.3916,72.79,24,2,1.3,AO,1690220233
334,ambon,-3.6954,128.1814,82.24,92,40,4.61,ID,1690220054
335,moratuwa,6.773,79.8816,82.42,90,95,5.91,LK,1690220234
336,ishikawa,26.4233,127.8214,84.16,83,40,5.75,JP,1690220234
337,berezovo,63.9381,65.0419,62.69,82,98,2.55,RU,1690220234
338,hauterive,46.0901,3.4459,74.16,50,99,9.48,FR,1690220234
339,kirensk,57.7853,108.1119,64.27,77,72,1.74,RU,1690220235
340,hotan,37.0997,79.9269,88.65,23,56,3.91,CN,1690220235
341,brookings,44.3114,-96.7984,86.45,53,0,13.8,US,1690220156
342,gordonvale,-17.0936,145.7842,60.58,71,11,5.19,AU,1690220235
343,zhumysker,49.3333,49.4,79.2,45,100,9.84,KZ,1690220235
344,lospalos,-8.5186,127.0025,65.48,83,87,7.47,TL,1690220235
345,goodlands,-20.035,57.6431,73.42,83,8,1.99,MU,1690220236
346,belmonte,-15.8631,-38.8828,76.1,65,29,11.43,BR,1690220236
347,remire-montjoly,4.9167,-52.2667,82.44,78,0,3.44,GF,1690220236
348,xining,36.6167,101.7667,61.21,51,82,2.91,CN,1690220236
349,macas,-2.3167,-78.1167,82.26,47,69,4.23,EC,1690220237
350,bijar,35.8668,47.6051,79.38,17,2,9.28,IR,1690220237
351,morehead city,34.7229,-76.726,87.85,80,40,5.01,US,1690220237
352,seminole,28.7086,-81.2081,95.22,58,40,27.63,US,1690220237
353,north bend,43.4065,-124.2243,74.25,72,0,5.75,US,1690220238
354,pontes e lacerda,-15.2261,-59.3353,96.6,18,0,3.65,BR,1690220238
355,kalyani,22.9833,88.4833,82.31,84,20,7.43,IN,1690220238
356,badagry,6.4167,2.8833,75.36,91,100,10.27,NG,1690220238
357,badger,64.8,-147.5333,79.12,70,40,3.44,US,1690220238
358,lata,40.1629,-8.3327,71.08,52,2,12.24,PT,1690220239
359,xinyuan,37.3,99.0,45.91,90,98,3.89,CN,1690220239
360,bukama,-9.2,25.85,80.47,29,0,1.16,CD,1690220239
361,rongelap,11.1635,166.8941,83.64,75,93,19.01,MH,1690220239
362,betio village,1.358,172.9211,80.64,76,10,10.09,KI,1690220240
363,yigo village,13.5361,144.8886,79.92,94,0,8.05,GU,1690220240
364,altamira,-3.2033,-52.2064,93.29,43,20,4.61,BR,1690219981
365,dryden,49.7833,-92.7503,75.49,46,0,8.05,CA,1690220240
366,mae hong son,19.3003,97.9685,75.42,93,92,2.13,TH,1690220241
367,nova xavantina,-14.6667,-52.35,93.61,21,0,4.47,BR,1690220059
368,parana,-31.732,-60.5238,55.54,80,100,12.17,AR,1690220241
369,tynda,55.1667,124.7167,60.26,90,100,2.82,RU,1690220241
370,raton,36.9034,-104.4391,88.14,36,0,4.61,US,1690220242
371,nova sintra,14.8667,-24.7167,73.69,78,90,12.46,CV,1690220242
372,constantia,44.1833,28.65,81.28,67,0,20.69,RO,1690220242
373,yeppoon,-23.1333,150.7333,58.78,88,99,19.93,AU,1690220242
374,erdenet,49.0333,104.0833,57.99,73,91,4.99,MN,1690220243
375,galesong,-5.3166,119.3661,73.42,80,9,7.74,ID,1690220243
376,assab,13.0092,42.7394,92.37,66,100,13.02,ER,1690220243
377,peace river,56.2501,-117.286,66.51,72,100,4.61,CA,1690220243
378,al fuwayliq,26.4432,43.2534,94.53,9,63,9.08,SA,1690220244
379,sao desiderio,-12.3633,-44.9733,86.9,29,42,9.93,BR,1690220244
380,wamba,8.9333,8.6,75.78,86,84,4.54,NG,1690220244
381,gulf shores,30.246,-87.7008,92.17,55,20,8.01,US,1690220244
382,jining,35.405,116.5814,81.75,68,99,4.81,CN,1690220245
383,conduaga,8.862,117.4893,79.54,89,100,11.65,PH,1690220245
384,khovd,48.0056,91.6419,64.44,44,45,1.61,MN,1690220245
385,chela,34.069,104.4619,55.42,92,69,2.62,CN,1690220245
386,arno,60.1167,18.6333,62.53,72,36,11.12,SE,1690220245
387,nar'yan-mar,67.6713,53.087,59.63,82,98,7.2,RU,1690220246
388,hadibu,12.65,54.0333,77.16,79,81,23.13,YE,1690220246
389,al hazm,16.1641,44.7769,87.6,37,98,15.73,YE,1690220246
390,saint-joseph,-21.3667,55.6167,68.38,83,39,7.54,RE,1690219970
391,neiafu,-18.65,-173.9833,61.48,100,20,0.0,TO,1690219963
392,jorhat,26.75,94.2167,79.95,92,99,2.93,IN,1690220247
393,shymkent,42.3,69.6,88.39,13,0,6.71,KZ,1690220247
394,santa isabel,-23.3156,-46.2214,85.08,28,1,3.33,BR,1690220247
395,hamilton,39.1834,-84.5333,87.75,66,40,12.66,US,1690220129
396,russkiy kameshkir,52.8589,46.0892,61.9,80,73,4.25,RU,1690220248
397,menaka,15.9182,2.4022,96.93,36,80,11.14,ML,1690220248
398,nichinan,31.6,131.3667,76.68,91,32,1.63,JP,1690220248
399,semenov,56.7875,44.493,56.28,87,99,5.64,RU,1690220249
400,kolonia town,6.964,158.206,77.0,94,100,3.44,FM,1690220249
401,boa vista,2.8197,-60.6733,85.98,62,75,2.3,BR,1690220249
402,newman,37.3138,-121.0208,87.06,13,83,2.77,US,1690220249
403,tortoli,39.9256,9.6572,109.22,10,0,9.22,IT,1690220250
404,east london,-33.0153,27.9116,52.74,76,0,8.05,ZA,1690220012
405,cholpon-ata,42.6494,77.0823,71.65,59,57,0.22,KG,1690220032
406,point pedro,9.8167,80.2333,81.37,79,100,11.88,LK,1690220251
407,rockland,41.1668,-74.0496,86.97,53,95,1.01,US,1690220252
408,ad dabbah,18.05,30.95,99.93,10,74,10.42,SD,1690220252
409,kapuskasing,49.4169,-82.4331,68.09,56,100,6.91,CA,1690220124
410,sao vicente,-23.9631,-46.3919,88.27,42,0,5.99,BR,1690220253
411,gerzat,45.8243,3.144,73.35,56,0,18.41,FR,1690220253
412,kristinestad,62.2743,21.376,62.1,84,94,5.48,FI,1690220253
413,barra de santo antonio,-9.4047,-35.5072,81.68,80,55,10.67,BR,1690220254
414,kavaratti,10.5669,72.642,82.63,81,73,17.72,IN,1690220254
415,ternate,0.8,127.4,79.99,80,28,7.81,ID,1690220254
416,akdepe,42.0551,59.3788,89.69,19,69,11.16,TM,1690220254
417,prince george,53.9166,-122.753,58.44,88,100,2.3,CA,1690220255
418,bamboo flat,11.7,92.7167,77.09,88,100,1.14,IN,1690220255
419,alofi,-19.0595,-169.9187,71.49,64,5,9.22,NU,1690219980
420,mejit,10.2753,170.8646,82.53,77,87,16.8,MH,1690220255
421,lubang,13.8584,120.124,83.05,80,100,15.68,PH,1690220255
422,mokpo,34.7936,126.3886,77.05,96,100,5.91,KR,1690220256
423,kismayo,-0.3582,42.5454,77.04,78,57,15.88,SO,1690220256
424,jangaon,17.7167,79.1833,73.49,98,100,8.08,IN,1690220256
425,cill airne,52.05,-9.5167,57.67,75,100,8.61,IE,1690220256
426,kuching,1.55,110.3333,78.98,90,20,0.0,MY,1690220256
427,olinda,-8.0089,-34.8553,74.93,88,75,10.36,BR,1690220257
428,jackson,42.4165,-122.8345,76.39,44,0,3.0,US,1690220161
429,kutum,14.2,24.6667,81.23,42,99,7.7,SD,1690220257
430,gamboma,-1.8764,15.8644,82.81,52,71,1.77,CG,1690220257
431,umm ruwaba,12.9061,31.2158,92.61,36,98,14.45,SD,1690220257
432,carutapera,-1.195,-46.02,81.95,73,43,6.8,BR,1690220258
433,lefka,35.1106,32.8506,87.46,39,0,8.48,CY,1690220258
434,gainsborough,53.3833,-0.7667,64.0,63,96,9.46,GB,1690220125
435,inari,68.906,27.0288,52.0,97,100,7.96,FI,1690220012
436,bokhan,53.153,103.7714,58.24,91,6,3.06,RU,1690220258
437,marsh harbour,26.5412,-77.0636,86.09,67,14,6.38,BS,1690220259
438,peniche,39.3558,-9.3811,72.09,73,5,15.48,PT,1690220259
439,yasnyy,51.0333,59.8742,70.2,43,100,8.59,RU,1690220259
440,neftegorsk,52.802,51.166,66.61,68,55,5.95,RU,1690220157
441,melekeok village,7.4957,134.6367,79.36,94,75,5.75,PW,1690220259
442,prince rupert,54.3161,-130.3201,60.49,92,40,3.44,CA,1690220260
443,beyneu,45.3167,55.2,92.8,21,27,11.72,KZ,1690220260
444,zouerate,22.7187,-12.4521,101.07,13,0,14.74,MR,1690220260
445,novi vinodolski,45.1281,14.7889,83.16,83,20,6.91,HR,1690220260
446,fang,19.9169,99.2145,73.24,95,82,1.36,TH,1690220260
447,basoko,1.2391,23.616,76.17,84,85,1.59,CD,1690220260
448,malvan,16.0667,73.4667,80.56,84,100,19.69,IN,1690220261
449,ust'-ordynskiy,52.805,104.7508,56.19,93,1,4.23,RU,1690220261
450,barah,13.7,30.3667,95.0,30,87,14.36,SD,1690220261
451,nantucket,41.2835,-70.0995,84.25,69,99,11.27,US,1690220178
452,taksimo,56.3444,114.8794,61.97,73,40,1.01,RU,1690220261
453,kargopol',61.5071,38.9456,55.2,92,73,3.74,RU,1690219971
454,wenling,28.3669,121.36,79.21,92,96,5.82,CN,1690220262
455,tralee,52.2704,-9.7026,57.9,75,100,8.43,IE,1690220262
456,alesund,62.4723,6.1549,59.0,83,75,16.11,NO,1690220262
457,renfrew,55.872,-4.3925,62.47,67,98,9.22,GB,1690220263
458,sangkhla buri,15.1555,98.4536,73.31,98,98,0.29,TH,1690220263
459,okhotsk,59.3833,143.3,55.98,75,10,3.44,RU,1690219975
460,cafayate,-26.073,-65.9761,61.88,42,96,5.99,AR,1690220264
461,mitu,1.1983,-70.1733,78.13,80,98,2.51,CO,1690220264
462,moussoro,13.6408,16.4901,91.98,43,26,10.6,TD,1690220264
463,bozhou,33.8772,115.7703,82.36,67,100,4.79,CN,1690220264
464,gemena,3.25,19.7667,74.97,85,86,2.42,CD,1690220265
465,gaalkacyo,6.7697,47.4308,85.03,44,98,25.01,SO,1690220265
466,wewak,-3.5534,143.6268,78.19,87,100,4.23,PG,1690220265
467,jinchang,38.4953,102.1739,81.19,18,90,6.04,CN,1690220265
468,paita,-5.0892,-81.1144,76.95,68,34,14.43,PE,1690220265
469,butterworth,5.3991,100.3638,81.12,84,20,3.44,MY,1690220266
470,saint-leu,-21.15,55.2833,70.63,89,15,3.91,RE,1690220266
471,puerto aysen,-45.4,-72.7,35.64,80,100,0.0,CL,1690220266
472,abong mbang,3.9833,13.1833,69.26,97,58,3.49,CM,1690220266
473,aasiaat,68.7098,-52.8699,38.68,94,99,6.55,GL,1690220266
474,hatillo,18.4863,-66.8254,92.41,72,25,11.99,PR,1690220267
475,gatton,-27.55,152.2833,51.64,90,4,3.36,AU,1690220267
476,sisimiut,66.9395,-53.6735,48.74,73,60,14.38,GL,1690220267
477,colonia,50.9333,6.95,69.96,80,20,16.11,DE,1690220267
478,san antonio de pale,-1.4014,5.6325,72.59,84,100,9.98,GQ,1690219968
479,'ali sabieh,11.1558,42.7125,98.73,39,94,7.76,DJ,1690220268
480,itabera,-23.8619,-49.1372,77.36,39,1,4.97,BR,1690220268
481,iranshahr,27.2025,60.6848,97.14,41,99,16.11,IR,1690220268
482,moissala,8.3404,17.7663,80.37,69,39,1.66,TD,1690220268
483,ketchikan,55.3422,-131.6461,63.07,72,20,11.5,US,1690220032
484,paciran,-6.8767,112.3761,76.53,80,37,6.93,ID,1690220268
485,buala,-8.145,159.5921,79.07,86,94,4.83,SB,1690220269
486,elliot,-31.3333,27.85,41.09,52,0,1.99,ZA,1690220269
487,iquitos,-3.7481,-73.2472,75.24,88,75,10.36,PE,1690220269
488,lhasa,29.65,91.1,51.01,93,100,3.38,CN,1690220269
489,huayin,34.5675,110.0921,79.75,69,0,8.68,CN,1690220269
490,milton,34.1322,-84.3007,89.91,54,0,1.99,US,1690220270
491,bhanjanagar,19.9333,84.5833,79.36,92,58,2.64,IN,1690220270
492,forster,-32.1667,152.5167,52.27,91,41,6.78,AU,1690220270
493,dunedin,-45.8742,170.5036,42.8,95,68,1.99,NZ,1690220270
494,anaconda,46.1285,-112.9423,83.39,22,98,10.4,US,1690220271
495,sinabang,2.4803,96.3801,79.39,80,18,2.06,ID,1690220271
496,north tamworth,-31.0778,150.9261,39.31,93,0,6.91,AU,1690220271
497,teluk nibung,3.001,99.8164,76.51,93,26,4.23,ID,1690220271
498,prineville,44.2999,-120.8345,80.02,45,0,10.36,US,1690220271
499,fauske,67.2588,15.3918,59.45,94,100,0.4,NO,1690220272
500,changji,44.0167,87.3167,86.79,26,0,4.47,CN,1690220272
501,fale old settlement,-9.3852,-171.2468,83.62,72,33,17.52,TK,1690220272
502,revelstoke,50.9832,-118.2023,75.22,46,0,2.3,CA,1690220272
503,puerto baquerizo moreno,-0.9,-89.6,77.99,89,75,11.5,EC,1690220158
504,chazuta,-6.5742,-76.1367,90.45,45,42,2.01,PE,1690220273
505,stung treng,13.5259,105.9683,73.9,99,98,2.3,KH,1690220273
506,lampazos de naranjo,27.0167,-100.5167,96.01,34,3,10.4,MX,1690220273
507,leer,53.2316,7.461,63.93,86,100,1.01,DE,1690220273
508,shevchenko,48.5,35.0,74.37,36,27,3.2,UA,1690220275
509,murzuq,25.9155,13.9184,97.66,13,4,5.7,LY,1690220275
510,qamdo,31.1667,97.2333,41.52,92,100,1.88,CN,1690220275
511,kimbe,-5.5502,150.1429,78.08,80,71,10.38,PG,1690220275
512,bac lieu,9.285,105.7244,77.72,89,89,8.01,VN,1690220276
513,pacific grove,36.6177,-121.9166,71.82,90,100,8.99,US,1690220277
514,ippy,6.2679,21.2247,76.03,77,84,3.69,CF,1690220277
515,general luna,13.6881,122.1708,81.01,83,100,13.18,PH,1690220277
516,gadzhiyevo,69.2551,33.3362,48.69,96,100,14.34,RU,1690220277
517,turpan,42.9333,89.1667,96.15,21,27,4.45,CN,1690220278
518,ayaviri,-14.8864,-70.5889,61.9,16,18,7.07,PE,1690220278
519,shushtar,32.0455,48.8567,103.87,9,0,7.58,IR,1690220278
520,verkhniy baskunchak,48.2256,46.7217,80.58,42,100,6.98,RU,1690220278
521,singkil,-7.9855,111.4161,70.5,88,44,3.09,ID,1690220279
522,yuzhno-kurilsk,44.0306,145.8556,62.42,99,100,7.25,RU,1690220279
523,zyryanskoye,56.8306,86.6258,63.91,94,99,4.61,RU,1690220279
524,fruita,39.1589,-108.729,93.61,20,0,3.44,US,1690220196
525,volkovysk,53.1561,24.4513,66.97,68,100,6.91,BY,1690220280
526,astaneh-ye ashrafiyeh,37.2596,49.9444,78.73,66,11,3.53,IR,1690220280
527,tonghae,37.5439,129.1069,76.17,86,95,7.38,KR,1690220280
528,kurikka,62.6167,22.4167,61.86,94,100,4.81,FI,1690220280
529,umluj,25.0213,37.2685,91.36,42,2,4.07,SA,1690220280
530,la gomera,14.0833,-91.05,89.64,61,95,5.64,GT,1690220280
531,harstad,68.799,16.5293,62.24,97,98,5.99,NO,1690220014
532,bel ombre,-4.6167,55.4167,78.64,83,40,9.22,SC,1690220281
533,katsuren-haebaru,26.3369,127.8719,84.22,83,40,5.75,JP,1690220281
534,dupnitsa,42.2667,23.1167,78.28,39,1,4.76,BG,1690220281
535,illizi,26.4833,8.4667,105.6,6,51,16.84,DZ,1690220281
536,saipan,15.1355,145.701,82.65,100,20,6.91,MP,1690220282
537,jabat,7.75,168.9751,82.17,81,100,17.92,MH,1690220282
538,shahritus,37.2637,68.1385,90.9,16,39,3.87,TJ,1690220282
539,banamba,13.55,-7.45,92.28,39,81,11.77,ML,1690220282
540,port-vila,-17.7338,168.3219,69.4,100,100,9.22,VU,1690220283
541,cananea,30.95,-110.3,88.41,25,46,7.38,MX,1690220283
542,zarinsk,53.7074,84.9493,58.32,89,37,7.31,RU,1690220283
543,kailua-kona,19.6406,-155.9956,80.56,83,40,3.44,US,1690220009
544,nuuk,64.1835,-51.7216,57.81,58,20,10.36,GL,1690220284
545,tarauaca,-8.1614,-70.7656,95.77,31,1,0.76,BR,1690220284
546,port blair,11.6667,92.75,77.04,88,100,1.14,IN,1690220284
547,ancud,-41.8697,-73.8203,45.99,89,100,21.36,CL,1690220285
548,bni bouayach,35.1022,-3.841,86.56,45,4,13.8,MA,1690220285
549,broome,42.2506,-75.833,81.01,68,20,11.01,US,1690220285
550,la sarre,48.8002,-79.1996,60.82,95,100,5.39,CA,1690220113
551,burutu,5.3509,5.5076,74.03,97,100,6.11,NG,1690220286
552,kangding,30.0513,101.9603,60.85,99,100,1.41,CN,1690220286
553,porangatu,-13.4408,-49.1486,92.5,20,0,5.08,BR,1690220286
554,briviesca,42.5499,-3.3232,68.14,62,76,10.87,ES,1690220286
555,tual,-5.6667,132.75,77.94,76,89,23.94,ID,1690220287
556,lombardia,19.15,-102.0333,77.85,73,100,3.67,MX,1690220287
557,kuanda,56.3161,116.0806,62.89,77,73,2.24,RU,1690220287
558,union de san antonio,21.1,-101.9667,84.02,35,53,8.84,MX,1690220288
559,sorsk,54.0033,90.2467,55.08,89,86,3.4,RU,1690220288
560,vredendal,-31.6683,18.5012,51.93,52,64,9.06,ZA,1690220289
561,rio grande,-32.035,-52.0986,59.11,84,100,14.38,BR,1690220289
562,acapulco de juarez,16.8634,-99.8901,89.42,55,75,3.44,MX,1690220031
563,papao,-17.75,-149.55,78.48,85,13,21.88,PF,1690220289
564,mount isa,-20.7333,139.5,53.37,54,2,13.8,AU,1690220290
565,gorom-gorom,14.4439,-0.2361,92.21,37,84,1.99,BF,1690220290
566,maputo,-25.9653,32.5892,64.08,82,100,14.97,MZ,1690220290
567,bikenibeu village,1.3673,173.1241,80.56,94,40,1.14,KI,1690220290
568,san luis de la loma,17.2706,-100.8939,88.95,56,100,7.27,MX,1690220291
569,sarmiento,-45.5882,-69.07,38.86,64,98,10.94,AR,1690220291
570,bazarak,35.3129,69.5152,68.77,49,22,1.7,AF,1690220291
571,ghadamis,30.1337,9.5007,103.78,9,0,8.19,LY,1690220291
572,bhachau,23.2833,70.35,83.21,81,42,14.94,IN,1690220291
573,cedeira,43.6797,-8.0209,66.97,70,44,10.11,ES,1690220292
574,sinop,41.7711,34.8709,61.29,90,40,0.69,TR,1690220292
575,mweka,-4.85,21.5667,80.29,32,9,1.19,CD,1690220292
576,el porvenir,13.7617,-87.3458,81.73,39,91,6.33,HN,1690220293
577,likiep,9.8251,169.3107,83.53,70,55,19.57,MH,1690220293
578,siracusa,37.0881,15.2792,102.31,41,0,3.4,IT,1690220013
579,maych'ew,12.7875,39.5422,64.8,67,84,2.8,ET,1690220293
580,sao joao da barra,-21.6403,-41.0511,80.69,68,11,13.71,BR,1690220293
581,veraval,20.9,70.3667,81.01,88,93,19.28,IN,1690220294
582,manismata,-2.4667,111.0333,72.59,98,17,3.31,ID,1690220299
583,yaring,6.8662,101.3689,79.23,80,83,7.78,TH,1690220300
584,antofagasta,-23.65,-70.4,65.48,69,33,8.5,CL,1690220300
585,new norfolk,-42.7826,147.0587,45.9,93,46,4.0,AU,1690220301
586,noosa heads,-26.3833,153.15,59.34,71,97,21.32,AU,1690220302
587,soio,-6.1349,12.3689,70.81,85,13,9.06,AO,1690220302
588,wickenburg,33.9686,-112.7296,102.18,27,90,7.76,US,1690220302
589,saham,24.1722,56.8886,91.42,75,98,12.75,OM,1690220302
590,childress,34.4264,-100.204,97.92,28,0,14.97,US,1690220285
591,thief river falls,48.1191,-96.1812,81.55,65,0,9.22,US,1690220257
592,korla,41.7597,86.1469,83.91,32,88,14.05,CN,1690220303
593,syktyvkar,61.6764,50.8099,58.91,100,40,0.0,RU,1690220303
594,new martinsville,39.6445,-80.8576,84.92,70,1,4.0,US,1690220303
595,guanare,9.0418,-69.7421,86.88,61,7,3.89,VE,1690220303
596,menongue,-14.6585,17.691,65.28,19,62,4.43,AO,1690220304
597,kitob,39.0843,66.8332,90.48,18,0,14.05,UZ,1690220304
